Date,Time,Latitude,Longitude,Pitch (degrees),Roll (degrees),Heading (degrees Magnetic),Heave,Temperature in electronics box (degrees C),"Acceleration x, forward (G)","Acceleration y, starboard (G)","Acceleration z, down (G)",Yaw rate [degrees/s],Control Mode,Thrust (% Thrust),Thrust difference (% Thrust),Date (MMDDYY),Time (HHMMSS),Temperature (C),Specific Conductance (uS/cm),Salinity (PPT),Pressure (psia),Depth (m),Chlorophyll (ug/L),ODO (%Sat),ODO (mg/L),Turbidity (FNU),Wiper Position (V)
20260130,133603,25.912691395,-80.13780781,-1.9,0.7,7.0,0.0,31.7,-0.04,-0.02,-1.03,-0.16,Thruster,0.0,0.0,13026.0,133559.0,20.86,53202.88,35.17,-0.01,-0.009,2.02,64.93,4.72,-0.13,1.22
20260130,133603,25.912691395,-80.13780781,-1.9,0.7,7.0,0.0,31.7,-0.04,-0.02,-1.03,-0.16,Thruster,0.0,0.0,13026.0,133600.0,20.86,53202.88,35.17,-0.01,-0.009,2.02,64.93,4.72,-0.13,1.22
20260130,133604,25.912691615,-80.13780684,-1.9,0.1,7.0,0.0,31.7,-0.04,-0.0,-1.02,-0.67,Thruster,0.0,0.0,13026.0,133601.0,20.86,53200.1,35.16,-0.01,-0.009,2.0,64.93,4.72,-0.12,1.22
20260130,133605,25.912691783333333,-80.13780585,-1.8,-0.3,7.0,0.0,31.7,-0.03,-0.0,-1.01,-0.45,Thruster,0.0,0.0,13026.0,133602.0,20.86,53200.24,35.16,-0.01,-0.009,2.09,64.94,4.72,-0.13,1.22
20260130,133606,25.912691915,-80.13780490833334,-1.8,0.2,7.0,0.0,31.7,-0.03,-0.01,-1.02,-0.5,Thruster,0.0,0.0,13026.0,133603.0,20.861,53199.48,35.16,-0.01,-0.009,2.14,64.94,4.72,-0.1,1.22
20260130,133607,25.91269208,-80.13780388166667,-2.0,0.5,7.0,0.0,31.7,-0.04,-0.01,-1.03,-0.42,Thruster,0.0,0.0,13026.0,133604.0,20.861,53199.64,35.16,-0.01,-0.009,2.17,64.94,4.72,-0.08,1.22
20260130,133608,25.912692281666665,-80.13780296,-1.9,-0.3,7.0,0.0,31.7,-0.04,0.0,-1.01,-0.79,Thruster,0.0,0.0,13026.0,133605.0,20.861,53205.59,35.17,-0.01,-0.009,2.25,64.95,4.73,-0.05,1.22
20260130,133609,25.912692483333334,-80.13780207166667,-1.7,-1.0,7.0,0.0,31.7,-0.02,0.01,-1.0,-0.71,Thruster,35.5,0.0,13026.0,133606.0,20.861,53214.73,35.18,-0.01,-0.009,2.31,64.97,4.73,-0.02,1.22
20260130,133610,25.912692976666666,-80.13780008833334,-0.7,-0.5,7.0,0.0,31.7,0.06,-0.01,-0.95,-0.65,Thruster,37.4,0.0,13026.0,133607.0,20.862,53220.66,35.18,-0.01,-0.009,2.35,64.99,4.73,-0.02,1.22
20260130,133611,25.912694376666668,-80.1377947,-1.2,-0.5,7.0,0.0,31.7,-0.01,-0.0,-1.0,-0.71,Thruster,25.6,0.0,13026.0,133608.0,20.862,53222.0,35.18,-0.01,-0.009,2.36,65.02,4.73,-0.02,1.22
20260130,133612,25.912696218333334,-80.13778781,-1.7,-0.5,7.0,0.0,31.7,-0.04,0.02,-1.02,1.09,Thruster,0.0,0.0,13026.0,133609.0,20.862,53214.32,35.18,-0.01,-0.009,2.38,65.05,4.73,-0.0,1.22
20260130,133613,25.912697838333333,-80.1377809,-1.7,-0.7,7.0,0.0,31.7,-0.04,0.0,-1.0,2.38,Thruster,2.1,55.6,13026.0,133610.0,20.861,53199.76,35.16,-0.01,-0.008,2.36,65.06,4.73,0.0,1.22
20260130,133614,25.91269865,-80.13777366,-1.2,-1.3,7.0,0.0,31.7,-0.02,0.08,-1.01,12.48,Thruster,14.9,37.6,13026.0,133611.0,20.859,53171.78,35.14,-0.01,-0.008,2.34,65.04,4.73,-0.04,1.22
20260130,133615,25.91269787,-80.13776529833333,-1.6,-0.8,7.0,0.0,31.7,-0.04,0.02,-0.98,5.78,Thruster,5.0,5.0,13026.0,133612.0,20.854,53142.17,35.12,-0.01,-0.008,2.33,64.98,4.73,-0.04,1.22
20260130,133616,25.912696628333332,-80.13775706666667,-0.6,-0.8,7.0,0.0,31.7,0.05,0.05,-0.95,2.58,Thruster,68.2,0.0,13026.0,133613.0,20.849,53131.41,35.11,-0.01,-0.008,2.26,64.87,4.72,-0.08,1.22
20260130,133617,25.912694508333335,-80.13774412,0.5,-0.0,7.0,0.0,31.7,-0.04,-0.01,-1.06,0.61,Thruster,59.0,0.0,13026.0,133614.0,20.842,53113.97,35.1,-0.01,-0.008,2.26,64.69,4.71,-0.07,1.22
20260130,133618,25.912692255,-80.13772868666666,-1.0,-0.3,7.0,0.0,31.8,-0.06,0.0,-1.03,-0.07,Thruster,0.0,0.0,13026.0,133615.0,20.835,53086.56,35.08,-0.01,-0.007,2.23,64.5,4.7,-0.09,1.22
20260130,133619,25.912690345,-80.13771567,-2.6,-0.5,7.0,0.0,31.8,-0.06,0.01,-1.0,-0.23,Thruster,0.0,0.0,13026.0,133616.0,20.826,53050.75,35.05,-0.01,-0.007,2.17,60.93,4.44,-0.1,1.22
20260130,133620,25.912688691666666,-80.13770435166667,-1.1,-0.9,7.0,0.0,31.8,-0.03,0.07,-0.98,-0.46,Thruster,56.0,0.0,13026.0,133617.0,20.816,53014.84,35.03,-0.01,-0.006,2.09,60.26,4.39,-0.09,1.22
20260130,133621,25.912686971666666,-80.13769247,-1.1,-1.1,7.0,0.0,31.8,-0.03,-0.05,-1.05,-0.67,Thruster,17.5,0.0,13026.0,133618.0,20.806,52968.39,34.99,-0.01,-0.006,2.03,59.4,4.33,-0.1,1.22
20260130,133622,25.912685305,-80.13768011833334,-1.5,-0.9,7.0,0.0,31.8,-0.02,0.01,-0.96,-0.29,Thruster,18.7,0.0,13026.0,133619.0,20.793,52924.7,34.96,-0.01,-0.005,2.03,58.94,4.3,-0.12,1.22
20260130,133623,25.912683743333332,-80.13766800333333,-1.3,-0.7,7.0,0.0,31.8,-0.04,0.0,-0.95,-0.04,Thruster,4.8,4.8,13026.0,133620.0,20.781,52883.33,34.93,-0.01,-0.005,2.01,58.56,4.27,-0.12,1.22
20260130,133624,25.912682243333332,-80.13765790166667,-1.0,-0.1,7.0,0.0,31.8,-0.05,-0.02,-0.97,2.5,Thruster,-10.7,10.7,13026.0,133621.0,20.768,52847.63,34.9,-0.01,-0.005,2.0,58.22,4.25,-0.13,1.22
20260130,133625,25.912680513333335,-80.13764985,-2.0,-0.3,7.0,0.0,31.8,-0.07,-0.03,-1.02,6.85,Thruster,-20.3,46.0,13026.0,133622.0,20.756,52815.73,34.88,-0.01,-0.005,2.0,57.91,4.23,-0.14,1.22
20260130,133626,25.912678131666667,-80.137645015,-3.8,-1.0,7.0,0.0,31.8,-0.15,-0.11,-0.99,17.88,Thruster,-33.1,64.1,13026.0,133623.0,20.743,52791.25,34.86,-0.01,-0.005,1.97,57.68,4.21,-0.15,1.22
20260130,133627,25.912677081666665,-80.1376463,0.0,-1.0,7.0,0.0,31.8,-0.15,-0.11,-0.99,17.88,Thruster,-35.3,35.3,13026.0,133624.0,20.734,52777.81,34.85,-0.01,-0.004,1.96,57.43,4.19,-0.15,1.22
20260130,133628,25.91267995,-80.13764986,-1.4,-1.0,7.0,0.0,31.7,-0.04,0.08,-0.96,10.03,Thruster,-6.7,57.1,13026.0,133625.0,20.725,52788.39,34.86,-0.01,-0.004,1.92,57.24,4.18,0.02,1.22
20260130,133629,25.912684365,-80.13765292666666,-1.9,-0.1,7.0,0.0,31.7,-0.05,-0.06,-1.02,7.97,Thruster,-0.5,34.1,13026.0,133626.0,20.72,52772.89,34.85,-0.01,-0.004,1.93,57.06,4.17,0.03,1.22
20260130,133630,25.912688888333335,-80.13765483666667,-1.8,-0.7,7.0,0.0,31.7,-0.02,-0.01,-1.01,4.1,Thruster,0.0,0.0,13026.0,133627.0,20.714,52756.35,34.84,-0.0,-0.003,1.92,56.94,4.16,0.03,1.22
20260130,133631,25.912692926666665,-80.13765585833333,-1.8,-1.2,7.0,0.0,31.7,-0.02,0.03,-0.97,0.93,Thruster,0.0,0.0,13026.0,133628.0,20.71,52751.4,34.83,-0.0,-0.003,1.95,56.82,4.15,0.05,1.22
20260130,133632,25.91269648,-80.13765646833333,-1.8,-0.6,7.0,0.0,31.7,-0.02,0.01,-1.01,1.46,Thruster,0.0,0.0,13026.0,133629.0,20.706,52750.63,34.83,-0.0,-0.003,1.97,56.72,4.15,0.03,1.22
20260130,133633,25.91269973,-80.137656955,-2.3,-0.8,7.0,0.0,31.8,-0.03,0.0,-1.01,1.46,Thruster,0.0,0.0,13026.0,133630.0,20.704,52742.8,34.83,-0.0,-0.003,1.97,56.62,4.14,0.04,1.22
20260130,133634,25.912702585,-80.13765736333333,-2.1,-0.7,7.0,0.0,31.7,-0.03,0.02,-1.0,-0.31,Thruster,0.0,0.0,13026.0,133631.0,20.702,52738.25,34.82,-0.0,-0.003,1.95,56.52,4.13,0.04,1.22
20260130,133635,25.912705216666666,-80.13765774833334,-1.9,-0.7,7.0,0.0,31.8,-0.03,0.01,-0.99,0.37,Thruster,0.0,0.0,13026.0,133632.0,20.7,52736.95,34.82,-0.0,-0.003,1.91,56.41,4.12,0.04,1.22
20260130,133636,25.912707598333334,-80.137657975,-1.7,-0.8,7.0,0.0,31.8,-0.03,0.01,-1.0,-0.06,Thruster,0.0,0.0,13026.0,133633.0,20.698,52731.11,34.82,-0.0,-0.003,1.92,56.16,4.11,0.04,1.22
20260130,133637,25.912710051666668,-80.13765822,-2.0,-0.9,7.0,0.0,31.8,-0.03,0.01,-1.0,-0.15,Thruster,0.0,0.0,13026.0,133634.0,20.697,52727.42,34.82,-0.0,-0.003,1.99,55.9,4.09,0.04,1.22
20260130,133638,25.912711846666667,-80.13765832833333,-1.2,-0.9,7.0,0.0,31.8,0.02,0.04,-0.99,-0.53,Thruster,33.7,0.0,13026.0,133635.0,20.695,52726.21,34.81,-0.0,-0.003,2.01,55.69,4.07,0.03,1.22
20260130,133639,25.912710191666665,-80.13765737166666,-0.9,-0.8,7.0,0.0,31.8,0.08,0.03,-1.05,-2.15,Thruster,52.5,0.0,13026.0,133636.0,20.694,52729.21,34.82,-0.0,-0.003,1.99,55.46,4.06,0.04,1.22
20260130,133640,25.912704165,-80.13765496333333,-2.2,-0.9,7.0,0.0,31.8,-0.06,0.02,-1.05,-0.41,Thruster,0.0,0.0,13026.0,133637.0,20.693,52723.86,34.81,-0.0,-0.003,1.97,55.28,4.04,0.06,1.22
20260130,133641,25.912698491666667,-80.137652705,-1.6,-0.8,7.0,0.0,31.8,-0.04,0.01,-1.0,-0.65,Thruster,9.0,0.0,13026.0,133638.0,20.691,52694.78,34.79,-0.0,-0.003,1.96,55.07,4.03,0.07,1.22
20260130,133642,25.912693328333333,-80.137650455,-1.2,-0.7,7.0,0.0,31.8,-0.03,0.0,-0.98,-0.04,Thruster,11.0,0.0,13026.0,133639.0,20.687,52675.84,34.78,-0.0,-0.003,1.93,54.87,4.01,-0.05,1.22
20260130,133643,25.912688391666666,-80.13764851,-1.3,-0.8,7.0,0.0,31.8,-0.04,0.03,-1.0,-0.17,Thruster,22.0,0.0,13026.0,133640.0,20.683,52669.61,34.77,-0.0,-0.003,1.94,54.63,4.0,-0.09,1.22
20260130,133644,25.912682828333335,-80.13764619833333,-1.0,-0.8,7.0,0.0,31.8,0.01,0.01,-0.99,-0.94,Thruster,34.0,0.0,13026.0,133641.0,20.68,52662.1,34.77,-0.0,-0.003,1.96,54.42,3.98,-0.09,1.22
20260130,133645,25.912676143333332,-80.13764344,-1.0,-0.8,7.0,0.0,31.8,0.01,0.03,-0.96,-1.35,Thruster,27.0,0.0,13026.0,133642.0,20.677,52657.02,34.76,-0.0,-0.003,1.96,54.18,3.96,-0.09,1.22
20260130,133646,25.912668361666668,-80.137639975,-1.1,-0.8,7.0,0.0,31.8,-0.03,-0.03,-0.96,-0.95,Thruster,31.6,0.0,13026.0,133643.0,20.676,52679.48,34.78,-0.0,-0.002,2.01,54.0,3.95,-0.08,1.22
20260130,133647,25.912658541666666,-80.13763545166667,-0.2,-0.7,7.0,0.0,31.8,-0.02,-0.04,-0.96,-1.37,Thruster,27.0,0.0,13026.0,133644.0,20.676,52722.13,34.81,-0.0,-0.002,2.09,53.84,3.94,-0.06,1.22
20260130,133648,25.912648433333334,-80.13763061333333,-1.7,-0.8,7.0,0.0,31.8,-0.02,0.03,-0.98,0.03,Thruster,29.0,0.0,13026.0,133645.0,20.68,52748.28,34.83,-0.0,-0.002,2.08,53.77,3.93,-0.06,1.22
20260130,133649,25.912638713333333,-80.137625905,-2.4,-0.9,7.0,0.0,31.8,-0.03,-0.0,-1.1,-0.29,Thruster,25.0,-3.0,13026.0,133646.0,20.684,52747.77,34.83,-0.0,-0.001,2.08,53.75,3.93,-0.05,1.22
20260130,133650,25.91262896,-80.13762111666666,-1.6,-0.5,7.0,0.0,31.8,-0.0,0.05,-1.05,-3.36,Thruster,28.9,-9.0,13026.0,133647.0,20.687,52750.21,34.83,-0.0,-0.001,2.12,53.74,3.93,-0.04,1.22
20260130,133651,25.912619478333333,-80.13761562666667,-0.9,-0.9,7.0,0.0,31.8,-0.02,0.0,-0.94,-0.29,Thruster,24.1,24.1,13026.0,133648.0,20.689,52752.95,34.83,-0.0,-0.001,2.12,53.74,3.93,-0.05,1.22
20260130,133652,25.91260931,-80.13761033666667,-0.3,-1.3,7.0,0.0,31.8,-0.01,-0.02,-0.89,5.19,Thruster,34.5,14.5,13026.0,133649.0,20.69,52755.18,34.84,-0.0,-0.0,2.14,53.74,3.93,-0.03,1.22
20260130,133653,25.912597963333333,-80.13760535166666,-2.1,-0.9,7.0,0.0,31.8,-0.06,0.01,-1.02,0.68,Thruster,15.0,0.0,13026.0,133650.0,20.691,52759.51,34.84,-0.0,-0.0,2.15,53.74,3.93,-0.03,1.22
20260130,133654,25.912587791666667,-80.13760094,-2.3,-1.2,7.0,0.0,31.8,-0.04,-0.02,-1.07,1.76,Thruster,27.9,27.9,13026.0,133651.0,20.692,52774.09,34.85,0.0,0.0,2.16,53.73,3.93,-0.02,1.22
20260130,133655,25.91257693,-80.13759690833334,-0.3,-1.3,7.0,0.0,31.8,0.05,0.08,-1.11,6.51,Thruster,5.1,65.3,13026.0,133652.0,20.694,52776.42,34.85,-0.0,-0.0,2.06,53.74,3.93,-0.01,1.22
20260130,133656,25.91256392,-80.13759448833333,-0.1,-1.7,7.0,0.0,31.8,-0.05,-0.04,-0.87,15.14,Thruster,11.5,64.4,13026.0,133653.0,20.695,52773.05,34.85,-0.0,-0.0,2.05,53.73,3.93,-0.01,1.22
20260130,133658,25.912550331666665,-80.13759522,-1.8,-1.3,7.0,0.0,31.8,-0.07,0.03,-1.05,7.07,Thruster,14.8,14.8,13026.0,133654.0,20.695,52765.48,34.84,-0.0,-0.0,2.01,53.72,3.93,0.0,1.22
20260130,133659,25.912537306666668,-80.13759749,-1.5,-0.8,7.0,0.0,31.8,-0.08,0.0,-1.0,2.02,Thruster,-2.2,32.2,13026.0,133655.0,20.694,52767.67,34.85,-0.0,-0.0,1.95,53.7,3.93,0.02,1.22
20260130,133700,25.912527305,-80.13759954833333,-0.7,-0.6,7.0,0.0,31.8,-0.02,-0.0,-0.93,2.13,Thruster,0.0,0.0,13026.0,133656.0,20.693,52760.8,34.84,-0.0,-0.001,1.92,53.66,3.92,0.02,1.22
20260130,133701,25.912518881666667,-80.13760156166667,-2.0,-0.6,7.0,0.0,31.8,-0.05,0.01,-0.99,4.71,Thruster,-0.4,65.9,13026.0,133657.0,20.692,52747.56,34.83,-0.0,-0.001,1.92,53.62,3.92,0.02,1.22
20260130,133702,25.912511718333334,-80.13760449166666,-1.6,-1.1,7.0,0.0,31.8,-0.07,-0.05,-1.06,17.24,Thruster,-5.6,70.1,13026.0,133658.0,20.691,52760.13,34.84,-0.0,-0.001,1.9,53.55,3.92,0.02,1.22
20260130,133703,25.912506975,-80.13760893833333,-2.4,-0.8,7.0,0.0,31.8,-0.06,-0.04,-1.08,17.37,Thruster,-14.6,14.6,13026.0,133659.0,20.69,52782.08,34.86,-0.0,-0.001,1.93,53.5,3.91,0.01,1.22
20260130,133704,25.912504195,-80.137613235,-1.6,0.2,7.0,0.0,31.8,-0.05,0.04,-1.03,10.58,Thruster,-2.3,23.5,13026.0,133700.0,20.692,52809.4,34.88,-0.0,-0.001,1.99,53.47,3.91,0.0,1.22
20260130,133705,25.912502215,-80.13761700333333,-1.5,-0.1,7.0,0.0,31.8,-0.03,-0.0,-1.0,4.99,Thruster,5.7,5.7,13026.0,133701.0,20.695,52833.28,34.89,-0.0,-0.002,2.0,53.48,3.91,0.01,1.22
20260130,133706,25.91250043,-80.137620705,-1.5,-1.0,7.0,0.0,31.8,-0.02,0.0,-0.99,2.06,Thruster,25.0,18.0,13026.0,133702.0,20.699,52864.93,34.92,-0.0,-0.002,2.04,53.55,3.91,0.02,1.22
20260130,133707,25.912498498333335,-80.137626,-0.8,-1.2,7.0,0.0,31.8,0.0,-0.02,-0.98,6.65,Thruster,26.5,26.5,13026.0,133703.0,20.704,52900.99,34.94,-0.0,-0.002,2.09,53.65,3.92,0.02,1.22
20260130,133708,25.9124968,-80.13763408666667,-1.1,-2.2,7.0,0.0,31.8,-0.02,0.07,-0.97,3.37,Thruster,21.1,21.1,13026.0,133704.0,20.71,52932.2,34.97,-0.0,-0.002,2.1,53.81,3.93,0.02,1.22
20260130,133709,25.912495523333334,-80.13764419666667,-0.8,-1.7,7.0,0.0,31.8,0.03,0.01,-0.98,6.39,Thruster,9.0,45.2,13026.0,133705.0,20.718,52975.02,35.0,-0.0,-0.002,2.15,54.07,3.95,0.03,1.22
20260130,133710,25.912495805,-80.13765562666667,0.5,-1.1,7.0,0.0,31.8,0.04,0.18,-0.98,16.25,Thruster,13.0,74.0,13026.0,133706.0,20.727,53042.45,35.05,-0.0,-0.002,2.2,57.79,4.22,0.06,1.22
20260130,133710,25.912495805,-80.13765562666667,0.5,-1.1,7.0,0.0,31.8,0.04,0.18,-0.98,16.25,Thruster,13.0,74.0,13026.0,133707.0,20.741,53094.91,35.09,-0.0,-0.002,2.24,58.66,4.28,0.07,1.22
20260130,133711,25.91249941,-80.13766892666666,-0.6,-1.2,7.0,0.0,31.8,-0.03,0.04,-1.01,9.95,Thruster,25.0,37.1,13026.0,133708.0,20.754,53142.75,35.12,-0.0,-0.002,2.25,59.29,4.32,0.07,1.22
20260130,133712,25.912504388333332,-80.13768087166666,-0.7,-0.8,7.0,0.0,31.7,-0.06,0.12,-0.92,4.24,Thruster,-1.6,57.1,13026.0,133709.0,20.769,53179.75,35.15,-0.0,-0.001,2.26,59.54,4.34,0.08,1.22
20260130,133713,25.912509516666667,-80.137691025,-1.4,-1.1,7.0,0.0,31.7,0.01,0.12,-1.0,9.12,Thruster,-1.4,55.1,13026.0,133710.0,20.781,53208.17,35.17,-0.0,-0.001,2.29,59.87,4.36,0.09,1.22
20260130,133714,25.912515308333333,-80.13769816666667,-1.6,-1.4,7.0,0.0,31.7,-0.03,0.17,-1.07,15.19,Thruster,-6.1,45.2,13026.0,133711.0,20.793,53215.72,35.18,-0.0,-0.001,2.27,60.18,4.38,0.1,1.22
20260130,133715,25.91252103,-80.13770216833333,-1.8,-1.2,7.0,0.0,31.7,-0.04,0.03,-1.0,7.01,Thruster,4.0,4.0,13026.0,133713.0,20.811,53255.99,35.21,-0.0,-0.001,2.33,60.62,4.41,0.12,1.22
20260130,133717,25.912530858333334,-80.13770834,-1.1,-1.0,7.0,0.0,31.7,-0.01,0.05,-0.96,-0.53,Thruster,24.0,0.0,13026.0,133713.0,20.816,53267.93,35.22,-0.0,-0.0,2.34,60.72,4.42,0.13,1.22
20260130,133718,25.91253597,-80.137711815,-1.7,-0.9,7.0,0.0,31.7,-0.04,0.02,-1.0,-1.39,Thruster,4.0,0.0,13026.0,133714.0,20.824,53292.29,35.23,-0.0,-0.0,2.37,60.88,4.43,0.15,1.22
20260130,133719,25.912541553333334,-80.13771597166667,-1.1,-0.9,7.0,0.0,31.7,-0.04,0.03,-0.99,-2.38,Thruster,26.0,0.0,13026.0,133715.0,20.833,53295.76,35.24,-0.0,-0.0,2.38,61.05,4.44,0.14,1.22
20260130,133720,25.91254697,-80.13772041166666,-1.7,-0.9,7.0,0.0,31.8,-0.04,0.01,-0.98,-1.03,Thruster,20.0,0.0,13026.0,133716.0,20.839,53280.8,35.22,-0.0,-0.0,2.39,61.18,4.45,0.12,1.22
20260130,133721,25.912552245,-80.13772502333333,-1.0,-0.9,7.0,0.0,31.8,-0.01,0.04,-0.98,-0.56,Thruster,20.0,0.0,13026.0,133717.0,20.844,53283.32,35.23,-0.0,-0.0,2.42,61.29,4.46,0.13,1.22
20260130,133722,25.912557456666665,-80.13772962833333,-1.9,-0.8,7.0,0.0,31.8,0.0,0.02,-1.05,0.06,Thruster,20.0,0.0,13026.0,133718.0,20.846,53276.16,35.22,-0.0,-0.0,2.42,61.35,4.46,0.13,1.22
20260130,133723,25.912563128333332,-80.13773461666666,-1.1,-0.9,7.0,0.0,31.8,-0.02,0.02,-1.0,0.01,Thruster,25.0,0.0,13026.0,133719.0,20.848,53260.63,35.21,0.0,0.0,2.44,61.42,4.47,0.12,1.22
20260130,133724,25.912568981666666,-80.13773976333333,-1.7,-0.8,7.0,0.0,31.8,-0.02,0.04,-1.01,-0.61,Thruster,21.0,0.0,13026.0,133720.0,20.848,53253.38,35.2,0.0,0.0,2.42,61.47,4.47,0.12,1.22
20260130,133725,25.91257516,-80.13774526666667,-1.0,-0.9,7.0,0.0,31.8,-0.03,0.05,-0.99,-0.22,Thruster,28.0,0.0,13026.0,133721.0,20.848,53256.73,35.21,0.0,0.0,2.46,61.55,4.48,0.11,1.22
20260130,133726,25.912581418333332,-80.137750985,-1.5,-0.8,7.0,0.0,31.8,-0.03,0.0,-0.98,-0.68,Thruster,23.0,0.0,13026.0,133722.0,20.848,53243.0,35.2,0.0,0.0,2.48,61.73,4.49,0.1,1.22
20260130,133727,25.912588198333335,-80.13775695333334,-0.9,-1.3,7.0,0.0,31.8,-0.01,-0.01,-0.96,4.56,Thruster,24.5,24.5,13026.0,133723.0,20.848,53234.91,35.19,0.0,0.0,2.47,61.91,4.5,0.1,1.22
20260130,133728,25.912596121666667,-80.13776271833333,-1.3,-0.8,7.0,0.0,31.8,-0.05,0.02,-1.0,1.06,Thruster,22.0,0.0,13026.0,133724.0,20.847,53231.66,35.19,0.0,0.0,2.47,62.04,4.51,0.07,1.22
20260130,133729,25.912604571666666,-80.13776857,-1.1,-1.2,7.0,0.0,31.8,0.02,0.09,-0.97,4.86,Thruster,26.8,26.8,13026.0,133725.0,20.846,53227.5,35.19,-0.0,-0.0,2.42,62.17,4.52,0.05,1.22
20260130,133730,25.91261412,-80.13777365833333,-0.8,-1.3,7.0,0.0,31.8,-0.01,0.02,-1.0,7.1,Thruster,9.0,44.6,13026.0,133726.0,20.846,53221.3,35.18,-0.0,-0.0,2.4,62.28,4.53,0.05,1.22
20260130,133731,25.91262516,-80.13777707,-0.8,-2.0,7.0,0.0,31.8,-0.0,0.08,-1.03,10.37,Thruster,19.7,51.3,13026.0,133727.0,20.846,53220.74,35.18,-0.0,-0.0,2.39,62.4,4.54,0.04,1.22
20260130,133732,25.912636828333333,-80.13777856166666,-1.8,-1.3,7.0,0.0,31.8,-0.05,0.02,-0.98,1.96,Thruster,9.0,8.0,13026.0,133728.0,20.846,53222.66,35.18,-0.0,-0.0,2.39,62.5,4.55,0.04,1.22
20260130,133733,25.912647071666665,-80.13777954333334,-1.7,-0.9,7.0,0.0,31.8,-0.05,0.04,-0.98,0.11,Thruster,-1.6,52.8,13026.0,133729.0,20.846,53245.1,35.2,-0.0,-0.0,2.37,62.63,4.56,0.03,1.22
20260130,133734,25.912656501666667,-80.13777998333333,-0.9,-0.9,7.0,0.0,31.8,-0.07,0.09,-1.01,10.24,Thruster,3.3,41.0,13026.0,133730.0,20.849,53247.71,35.2,-0.0,-0.0,2.38,62.76,4.57,0.04,1.22
20260130,133735,25.912665168333334,-80.137778895,-1.9,-0.9,7.0,0.0,31.8,-0.02,0.01,-1.01,6.79,Thruster,0.0,0.0,13026.0,133731.0,20.851,53234.81,35.19,-0.0,-0.0,2.35,62.91,4.58,0.04,1.22
20260130,133736,25.912672996666668,-80.13777706166667,-1.4,-0.8,7.0,0.0,31.8,-0.04,0.04,-0.99,3.03,Thruster,-3.4,49.4,13026.0,133732.0,20.852,53233.94,35.19,-0.0,-0.0,2.32,63.04,4.59,0.02,1.22
20260130,133737,25.912680201666667,-80.13777449666667,-1.6,-1.3,7.0,0.0,31.8,-0.05,0.11,-1.0,11.16,Thruster,-2.8,39.8,13026.0,133733.0,20.851,53228.09,35.19,-0.0,-0.001,2.3,63.16,4.59,0.02,1.22
20260130,133738,25.912685826666667,-80.13777060333334,-1.6,-1.0,7.0,0.0,31.8,-0.05,0.05,-1.01,11.86,Thruster,-2.8,11.4,13026.0,133734.0,20.85,53212.09,35.17,-0.0,-0.001,2.27,63.25,4.6,-0.01,1.22
20260130,133739,25.912690166666668,-80.13776582833333,-1.5,-1.0,7.0,0.0,31.8,-0.05,0.02,-1.0,6.78,Thruster,-0.6,8.6,13026.0,133735.0,20.848,53178.36,35.15,-0.0,-0.001,2.25,63.31,4.61,-0.04,1.22
20260130,133740,25.912693131666668,-80.13776163833333,-1.7,-1.3,7.0,0.0,31.8,-0.04,0.03,-1.0,2.37,Thruster,5.8,5.8,13026.0,133736.0,20.843,53159.45,35.13,-0.0,-0.001,2.26,63.32,4.61,-0.06,1.22
20260130,133741,25.912695651666667,-80.13775768166667,-1.4,-1.1,7.0,0.0,31.8,-0.03,0.03,-1.01,1.75,Thruster,23.0,0.0,13026.0,133737.0,20.838,53138.09,35.12,-0.0,-0.001,2.27,63.3,4.61,-0.06,1.22
20260130,133742,25.912698385,-80.13775310333334,-1.6,-1.2,7.0,0.0,31.8,-0.01,0.04,-0.99,0.93,Thruster,19.0,0.0,13026.0,133738.0,20.833,53123.17,35.11,-0.0,-0.001,2.22,63.24,4.6,-0.07,1.22
20260130,133743,25.91270152,-80.13774795,-1.6,-1.0,7.0,0.0,31.8,-0.03,-0.02,-1.03,1.13,Thruster,18.8,0.0,13026.0,133739.0,20.827,53097.59,35.09,-0.0,-0.001,2.18,63.13,4.6,-0.08,1.22
20260130,133744,25.91270479,-80.137742645,-1.5,-0.5,7.0,0.0,31.8,0.0,0.02,-0.98,-0.42,Thruster,25.0,0.0,13026.0,133740.0,20.821,53065.0,35.06,-0.0,-0.001,2.18,62.99,4.59,-0.08,1.22
20260130,133745,25.912707961666666,-80.13773756,-1.6,-0.7,7.0,0.0,31.8,-0.04,0.0,-0.98,-0.28,Thruster,5.0,5.0,13026.0,133741.0,20.814,53027.3,35.04,-0.0,-0.0,2.15,62.75,4.57,-0.09,1.22
20260130,133746,25.91271079,-80.13773271333334,-1.3,-1.1,7.0,0.0,31.8,-0.03,0.02,-0.97,2.07,Thruster,4.0,4.0,13026.0,133742.0,20.805,53000.15,35.02,-0.0,-0.0,2.13,62.48,4.55,-0.1,1.22
20260130,133747,25.91271349166667,-80.13772772333333,-1.8,-0.9,7.0,0.0,31.8,-0.04,0.01,-1.01,0.59,Thruster,0.0,0.0,13026.0,133743.0,20.796,52964.79,34.99,-0.0,-0.001,2.09,58.92,4.29,-0.1,1.22
20260130,133748,25.912715866666666,-80.13772312333333,-1.9,-0.7,7.0,0.0,31.8,-0.04,0.0,-1.02,0.02,Thruster,31.6,0.0,13026.0,133744.0,20.786,52936.23,34.97,-0.0,-0.001,2.08,58.3,4.25,-0.1,1.22
20260130,133749,25.91271830333333,-80.13771816333333,-2.1,-0.3,7.0,0.0,31.8,-0.04,0.0,-1.02,-0.25,Thruster,0.0,0.0,13026.0,133745.0,20.777,52888.9,34.93,-0.0,-0.001,2.06,57.52,4.19,-0.09,1.22
20260130,133750,25.912720385,-80.137713915,-1.8,-0.1,7.0,0.0,31.8,-0.03,0.01,-1.02,-0.13,Thruster,31.0,11.9,13026.0,133746.0,20.765,52843.84,34.9,-0.0,-0.002,2.03,57.21,4.17,-0.08,1.22
20260130,133751,25.912722586666668,-80.13770947666667,-1.0,-0.5,7.0,0.0,31.8,-0.0,-0.02,-1.0,3.59,Thruster,31.3,31.3,13026.0,133747.0,20.754,52798.01,34.87,-0.0,-0.002,2.05,56.72,4.14,-0.06,1.22
20260130,133752,25.912725435,-80.13770210666667,-0.1,-1.8,7.0,0.0,31.8,0.03,0.14,-1.06,11.85,Thruster,5.1,71.3,13026.0,133748.0,20.742,52770.36,34.85,-0.0,-0.002,2.02,56.32,4.11,-0.04,1.22
20260130,133753,0.0,0.0,-1.6,-1.9,7.0,0.0,31.8,-0.07,0.15,-1.09,12.96,Thruster,-0.8,53.8,13026.0,133749.0,20.73,52739.09,34.82,-0.0,-0.002,2.01,55.92,4.08,-0.02,1.22
20260130,133754,25.91272741,-80.13768027166667,-0.9,-2.1,7.0,0.0,31.8,0.04,0.09,-1.09,19.59,Thruster,7.1,69.2,13026.0,133750.0,20.72,52694.75,34.79,-0.0,-0.002,1.94,55.59,4.06,0.0,1.22
20260130,133755,25.912723703333334,-80.13766924833334,-0.2,-2.3,7.0,0.0,31.8,0.0,0.08,-0.97,16.21,Thruster,9.0,70.0,13026.0,133751.0,20.707,52647.55,34.76,-0.0,-0.002,1.91,55.21,4.04,0.03,1.22
20260130,133756,25.91271707,-80.13765888,-1.3,-1.8,7.0,0.0,31.8,-0.06,0.06,-0.9,16.25,Thruster,1.6,65.4,13026.0,133752.0,20.696,52589.53,34.71,-0.0,-0.002,1.87,54.87,4.01,0.04,1.22
20260130,133757,25.912708708333334,-80.13765135166666,-0.9,-2.7,7.0,0.0,31.8,-0.02,0.21,-0.9,18.2,Thruster,15.6,68.4,13026.0,133753.0,20.682,52549.31,34.68,-0.0,-0.001,1.81,54.49,3.99,0.06,1.22
20260130,133758,25.912697723333334,-80.137646045,-1.0,-1.5,7.0,0.0,31.8,-0.01,-0.07,-0.99,10.21,Thruster,15.5,32.9,13026.0,133754.0,20.669,52509.48,34.65,-0.0,-0.001,1.79,54.17,3.96,0.06,1.22
20260130,133759,25.91268579666667,0.0,-2.5,-0.7,7.0,0.0,31.8,-0.06,-0.01,-1.05,1.63,Thruster,5.4,5.4,13026.0,133755.0,20.655,52472.08,34.63,-0.0,-0.001,1.75,53.84,3.94,0.07,1.22
20260130,133800,25.912675646666667,-80.13763899666667,-0.8,-0.8,7.0,0.0,31.8,0.01,-0.12,-1.03,2.58,Thruster,60.6,0.0,13026.0,133756.0,20.644,52452.68,34.61,-0.0,-0.001,1.74,53.59,3.93,0.09,1.22
20260130,133801,25.912662608333335,-80.13763535833333,1.5,-0.5,7.0,0.0,31.8,0.12,0.03,-0.88,-0.37,Thruster,70.2,-1.8,13026.0,133757.0,20.634,52448.07,34.61,-0.0,-0.001,1.75,53.34,3.91,0.09,1.22
20260130,133802,25.912644901666667,-80.13763013166667,2.5,-0.8,7.0,0.0,31.8,0.11,0.13,-1.13,-1.31,Thruster,70.0,0.0,13026.0,133758.0,20.627,52440.71,34.6,-0.0,-0.0,1.71,53.15,3.89,0.09,1.22
20260130,133803,25.912625736666666,-80.13762336,3.0,-0.1,7.0,0.0,31.8,0.03,0.05,-0.97,-4.44,Thruster,69.1,-18.8,13026.0,133759.0,20.62,52442.13,34.6,0.0,0.001,1.69,52.82,3.87,0.09,1.22
20260130,133804,25.912606956666668,-80.13761514333333,3.1,-1.0,7.0,0.0,31.8,0.04,0.1,-0.96,0.62,Thruster,70.0,0.0,13026.0,133800.0,20.616,52459.16,34.62,0.0,0.002,1.69,52.39,3.84,0.06,1.22
20260130,133805,25.912588258333333,-80.13760726,2.9,-1.0,7.0,0.0,31.8,0.07,-0.11,-0.88,-0.24,Thruster,70.0,0.0,13026.0,133801.0,20.616,52479.69,34.63,0.0,0.003,1.74,51.98,3.81,0.03,1.22
20260130,133806,25.912570083333332,-80.13759984833334,2.0,-1.1,7.0,0.0,31.8,0.05,0.04,-0.91,-0.73,Thruster,58.0,0.0,13026.0,133802.0,20.617,52515.77,34.66,0.01,0.004,1.77,51.71,3.79,0.03,1.22
20260130,133807,25.912553615,-80.137593055,1.2,-1.0,7.0,0.0,31.8,0.01,0.07,-1.06,-0.23,Thruster,57.0,0.0,13026.0,133803.0,20.622,52533.65,34.67,0.01,0.005,1.79,51.48,3.77,0.0,1.22
20260130,133808,25.912537688333334,-80.13758607666666,1.9,0.3,7.0,0.0,31.8,0.11,-0.05,-1.13,-6.8,Thruster,43.3,-43.3,13026.0,133804.0,20.626,52574.35,34.7,0.01,0.006,1.8,51.36,3.76,-0.01,1.22
20260130,133809,25.912519453333335,-80.13757464,2.5,-0.0,7.0,0.0,31.8,0.07,-0.02,-1.2,-10.02,Thruster,50.0,-50.0,13026.0,133805.0,20.633,52606.79,34.73,0.01,0.007,1.79,51.3,3.76,-0.02,1.22
20260130,133810,25.912503821666668,-80.13756052,2.6,-0.1,7.0,0.0,31.8,0.06,-0.0,-1.17,-8.84,Thruster,44.5,-55.5,13026.0,133806.0,20.64,52668.41,34.77,0.01,0.009,1.82,51.29,3.76,-0.03,1.22
20260130,133811,25.912503821666668,-80.13756052,2.6,-0.1,7.0,0.0,31.8,0.06,-0.0,-1.17,-8.84,Thruster,44.5,-55.5,13026.0,133807.0,20.651,52718.13,34.81,0.01,0.01,1.83,51.36,3.76,-0.05,1.22
20260130,133812,25.91248015,-80.13752952833333,-0.0,-0.4,7.0,0.0,31.9,0.01,0.05,-1.04,-2.37,Thruster,50.0,1.6,13026.0,133808.0,20.662,52734.24,34.82,0.02,0.011,1.83,51.48,3.77,-0.04,1.22
20260130,133813,25.912471768333333,-80.13751705333334,-2.1,-1.1,7.0,0.0,31.9,0.0,0.03,-1.0,1.45,Thruster,43.9,43.9,13026.0,133809.0,20.671,52752.45,34.83,0.02,0.011,1.84,51.63,3.78,-0.04,1.22
20260130,133814,25.912461248333333,-80.13750353166667,0.1,-1.7,7.0,0.0,31.9,0.01,0.08,-1.01,7.43,Thruster,19.6,70.0,13026.0,133810.0,20.679,52770.14,34.85,0.02,0.012,1.94,51.75,3.79,-0.06,1.22
20260130,133814,25.912461248333333,-80.13750353166667,0.1,-1.7,7.0,0.0,31.9,0.01,0.08,-1.01,7.43,Thruster,19.6,70.0,13026.0,133811.0,20.686,52798.37,34.87,0.02,0.013,1.95,51.91,3.8,-0.06,1.22
20260130,133815,25.912448058333332,-80.13749012833334,1.1,-1.0,7.0,0.0,31.9,-0.04,-0.04,-0.96,6.66,Thruster,1.5,74.8,13026.0,133812.0,20.695,52818.19,34.88,0.02,0.014,1.96,52.06,3.81,-0.08,1.22
20260130,133816,25.912435783333333,-80.13748069833333,-1.3,-2.4,7.0,0.0,31.9,-0.1,0.05,-0.89,13.02,Thruster,-5.2,75.2,13026.0,133813.0,20.702,52820.73,34.88,0.02,0.014,1.94,52.25,3.82,-0.09,1.22
20260130,133817,25.912424801666667,-80.13747666166667,-1.4,-3.1,7.0,0.0,31.8,-0.07,-0.1,-0.97,25.51,Thruster,-3.6,75.4,13026.0,133814.0,20.706,52803.99,34.87,0.02,0.014,1.95,52.41,3.83,-0.11,1.22
20260130,133818,25.912413345,-80.13747743166667,0.6,-1.0,7.0,0.0,31.8,-0.03,0.09,-0.96,12.41,Thruster,10.8,49.9,13026.0,133815.0,20.707,52786.0,34.86,0.02,0.014,1.99,52.56,3.84,-0.11,1.22
20260130,133819,25.912401881666668,-80.13748098833334,-1.8,-2.0,7.0,0.0,31.8,-0.01,0.09,-0.99,10.53,Thruster,17.2,40.2,13026.0,133816.0,20.707,52789.56,34.86,0.02,0.014,2.03,52.66,3.85,-0.13,1.22
20260130,133821,25.912390548333335,-80.137487015,-0.3,-1.6,7.0,0.0,31.8,0.02,0.1,-1.03,9.46,Thruster,15.8,49.2,13026.0,133817.0,20.708,52786.11,34.86,0.02,0.014,2.0,52.75,3.85,-0.14,1.22
20260130,133821,25.912379633333334,-80.137495,-1.0,-1.5,7.0,0.0,31.8,-0.04,-0.01,-1.0,2.69,Thruster,12.4,42.3,13026.0,133818.0,20.709,52795.15,34.87,0.02,0.015,2.0,52.83,3.86,-0.15,1.22
20260130,133822,25.912369623333333,-80.13750334,-1.3,-1.5,7.0,0.0,31.8,0.02,-0.01,-0.96,6.49,Thruster,0.8,70.3,13026.0,133819.0,20.711,52803.58,34.87,0.02,0.015,2.04,52.91,3.87,-0.16,1.22
20260130,133823,25.912360516666666,-80.13751336666667,0.1,-2.1,7.0,0.0,31.8,0.07,0.04,-0.94,14.22,Thruster,25.3,71.3,13026.0,133820.0,20.712,52798.78,34.87,0.02,0.016,2.06,52.99,3.87,-0.18,1.22
20260130,133824,25.912352356666666,-80.13752823333333,0.8,-2.9,7.0,0.0,31.8,0.02,-0.01,-0.93,11.24,Thruster,41.9,41.9,13026.0,133821.0,20.713,52827.82,34.89,0.02,0.016,1.98,53.08,3.88,-0.2,1.22
20260130,133825,25.912345991666665,-80.13754616166666,2.0,-3.1,7.0,0.0,31.8,0.06,0.18,-0.98,7.4,Thruster,27.0,73.0,13026.0,133822.0,20.718,52869.86,34.92,0.03,0.017,2.03,53.2,3.89,-0.2,1.22
20260130,133826,25.912341743333332,-80.13756582,2.0,-0.7,7.0,0.0,31.8,-0.06,-0.03,-1.03,12.36,Thruster,1.1,78.1,13026.0,133823.0,20.726,52915.13,34.95,0.03,0.018,2.01,53.41,3.9,-0.19,1.22
20260130,133827,25.912340765,-80.13758186166666,-0.1,-1.4,7.0,0.0,31.8,-0.02,0.01,-0.86,13.19,Thruster,-0.3,68.7,13026.0,133824.0,20.735,52946.0,34.98,0.03,0.019,2.02,53.67,3.92,-0.18,1.22
20260130,133828,25.912342855,-80.137593795,-1.9,-2.3,7.0,0.0,31.8,-0.09,0.1,-1.13,23.51,Thruster,-6.5,60.6,13026.0,133825.0,20.744,52983.27,35.0,0.03,0.019,2.08,57.48,4.2,-0.17,1.22
20260130,133829,25.912348063333333,-80.13760294,-0.8,-1.5,7.0,0.0,31.8,-0.05,0.03,-0.9,10.39,Thruster,0.0,0.0,13026.0,133826.0,20.753,53014.78,35.03,0.03,0.019,2.06,58.09,4.24,-0.18,1.22
20260130,133830,25.912352531666667,-80.13760843333333,-2.5,-2.2,7.0,0.0,31.8,-0.05,0.07,-0.94,8.39,Thruster,22.3,0.0,13026.0,133827.0,20.762,53069.61,35.07,0.03,0.019,2.07,58.79,4.29,-0.15,1.22
20260130,133831,25.912356781666666,-80.13761320666667,-0.9,-2.1,7.0,0.0,31.8,-0.0,0.1,-1.02,0.09,Thruster,70.0,0.0,13026.0,133828.0,20.774,53126.0,35.11,0.03,0.019,2.11,58.97,4.3,-0.12,1.22
20260130,133832,25.912363538333334,-80.13762008833334,-1.1,-2.0,7.0,0.0,31.8,0.06,-0.09,-1.11,2.2,Thruster,70.0,0.0,13026.0,133829.0,20.787,53181.42,35.15,0.03,0.019,2.12,59.4,4.33,-0.09,1.22
20260130,133833,25.912375421666667,-80.13763148833333,1.7,-1.4,7.0,0.0,31.8,0.01,0.01,-1.05,0.39,Thruster,64.5,0.0,13026.0,133830.0,20.8,53236.89,35.19,0.03,0.02,2.1,59.76,4.35,-0.06,1.22
20260130,133834,25.912388571666668,-80.13764397,1.7,-1.0,7.0,0.0,31.8,-0.01,0.01,-1.08,1.25,Thruster,35.0,0.0,13026.0,133831.0,20.815,53279.86,35.22,0.03,0.021,2.11,60.14,4.38,-0.05,1.22
20260130,133835,25.912399091666668,-80.13765382166666,1.7,-1.0,7.0,0.0,31.8,-0.01,0.01,-1.08,1.25,Thruster,30.0,0.0,13026.0,133832.0,20.828,53302.73,35.24,0.03,0.021,2.15,60.45,4.4,-0.05,1.22
20260130,133836,25.91240884,-80.13766303,-1.5,-0.9,7.0,0.0,31.8,-0.07,-0.03,-0.97,-0.67,Thruster,39.0,0.0,13026.0,133833.0,20.841,53325.97,35.26,0.03,0.022,2.15,60.76,4.42,-0.05,1.22
20260130,133837,25.912419923333335,-80.13767356,0.3,-1.0,7.0,0.0,31.9,-0.04,-0.07,-0.97,-0.38,Thruster,51.0,0.0,13026.0,133834.0,20.852,53346.75,35.27,0.03,0.023,2.17,60.99,4.44,-0.05,1.22
20260130,133838,25.912431641666668,-80.137684735,0.8,-1.5,7.0,0.0,31.9,0.06,0.06,-0.99,4.84,Thruster,39.1,39.1,13026.0,133835.0,20.863,53348.01,35.27,0.03,0.023,2.15,61.2,4.45,-0.05,1.22
20260130,133839,25.912445943333335,-80.13769572166666,0.8,-1.8,7.0,0.0,31.9,-0.0,0.04,-1.0,5.79,Thruster,57.9,20.6,13026.0,133836.0,20.869,53346.9,35.27,0.03,0.023,2.1,61.38,4.46,-0.05,1.22
20260130,133840,25.912460063333334,-80.13770453666666,-0.0,-1.0,7.0,0.0,31.9,-0.02,0.01,-1.02,0.59,Thruster,34.3,1.3,13026.0,133837.0,20.876,53350.91,35.28,0.03,0.023,2.1,61.57,4.48,-0.06,1.22
20260130,133842,25.91247235,-80.13771221333333,-0.7,-0.8,7.0,0.0,31.9,-0.0,0.01,-1.02,0.59,Thruster,55.6,0.0,13026.0,133838.0,20.881,53344.29,35.27,0.03,0.022,2.11,61.73,4.49,-0.07,1.22
20260130,133843,25.912485893333333,-80.1377211,1.7,-0.7,7.0,0.0,31.9,0.03,-0.01,-0.95,-0.84,Thruster,69.0,0.0,13026.0,133839.0,20.885,53349.93,35.28,0.03,0.022,2.09,61.88,4.5,-0.08,1.22
20260130,133844,25.912502026666665,-80.137732505,2.6,-0.8,7.0,0.0,31.9,-0.02,0.11,-1.03,-1.22,Thruster,69.0,0.0,13026.0,133840.0,20.889,53345.01,35.27,0.03,0.022,2.11,62.04,4.51,-0.08,1.22
20260130,133845,25.912517703333332,-80.13774394166667,1.6,-1.0,7.0,0.0,31.9,0.07,0.11,-1.03,1.34,Thruster,57.9,6.2,13026.0,133841.0,20.891,53344.96,35.27,0.03,0.022,2.13,62.31,4.53,-0.06,1.22
20260130,133846,25.912531736666665,-80.13775360833333,0.6,-0.7,7.0,0.0,31.9,0.01,0.08,-0.94,-0.04,Thruster,46.0,0.0,13026.0,133842.0,20.893,53331.29,35.26,0.03,0.022,2.11,62.7,4.56,-0.07,1.22
20260130,133847,25.912543788333334,-80.13776205666667,-1.1,-0.8,7.0,0.0,31.9,-0.03,-0.02,-1.04,0.03,Thruster,39.2,9.5,13026.0,133843.0,20.893,53311.07,35.25,0.03,0.021,2.12,62.98,4.58,-0.09,1.22
20260130,133848,25.912556053333333,-80.13777052833333,-1.4,-0.8,7.0,0.0,31.9,-0.02,0.01,-1.07,0.69,Thruster,36.7,6.8,13026.0,133844.0,20.892,53294.16,35.23,0.03,0.02,2.09,63.26,4.6,-0.1,1.22
20260130,133849,25.91256829,-80.13777859666666,-0.9,-1.3,7.0,0.0,31.9,-0.02,-0.02,-1.02,2.69,Thruster,44.2,9.3,13026.0,133845.0,20.889,53287.34,35.23,0.03,0.02,2.07,63.46,4.61,-0.11,1.22
20260130,133850,25.912582738333334,-80.13778676333334,0.3,-2.1,7.0,0.0,31.9,0.04,0.1,-1.0,7.5,Thruster,44.5,44.5,13026.0,133846.0,20.886,53286.62,35.23,0.03,0.019,2.11,63.65,4.63,-0.11,1.22
20260130,133851,25.912599031666666,-80.13779287166666,1.2,-1.6,7.0,0.0,31.9,0.01,-0.02,-0.98,5.1,Thruster,46.8,33.6,13026.0,133847.0,20.883,53284.14,35.23,0.03,0.019,2.16,63.81,4.64,-0.09,1.22
20260130,133852,25.912614615,-80.13779739666667,0.2,-1.3,7.0,0.0,31.9,-0.03,0.06,-0.99,2.1,Thruster,22.6,22.6,13026.0,133848.0,20.881,53284.48,35.23,0.03,0.019,2.18,63.98,4.65,-0.08,1.22
20260130,133853,25.912627205,-80.137800555,-1.8,-1.4,7.0,0.0,31.9,-0.02,0.08,-0.96,3.56,Thruster,-0.3,59.3,13026.0,133849.0,20.878,53277.32,35.22,0.03,0.019,2.18,64.11,4.66,-0.06,1.22
20260130,133854,25.912640515,-80.1378022,-1.1,-2.3,7.0,0.0,31.9,-0.01,0.11,-0.95,11.13,Thruster,-3.3,73.3,13026.0,133850.0,20.876,53265.82,35.21,0.03,0.018,2.19,64.24,4.67,-0.02,1.22
20260130,133855,25.912653071666668,-80.13780039333334,-0.8,-2.5,7.0,0.0,31.9,-0.09,0.06,-0.8,15.22,Thruster,-5.2,75.2,13026.0,133851.0,20.876,53261.73,35.21,0.03,0.018,2.19,64.35,4.68,0.02,1.22
20260130,133856,25.912663386666665,-80.13779538166666,-1.8,-1.6,7.0,0.0,31.9,-0.02,0.04,-1.02,12.14,Thruster,2.3,44.8,13026.0,133852.0,20.876,53243.67,35.2,0.03,0.018,2.18,64.42,4.68,0.03,1.22
20260130,133857,25.91267118,-80.13778906833333,-1.9,-1.6,7.0,0.0,31.8,-0.06,-0.03,-1.05,6.24,Thruster,-2.0,36.1,13026.0,133853.0,20.874,53229.71,35.19,0.03,0.018,2.14,64.48,4.69,0.02,1.22
20260130,133858,25.912677515,-80.13778238,-1.4,-1.6,7.0,0.0,31.9,-0.07,-0.02,-0.92,10.88,Thruster,-0.6,50.7,13026.0,133855.0,20.869,53193.12,35.16,0.03,0.018,2.18,64.49,4.69,0.02,1.22
20260130,133859,25.912682075,-80.13777505666667,-1.7,-1.8,7.0,0.0,31.8,-0.04,0.03,-0.97,7.1,Thruster,0.0,0.0,13026.0,133856.0,20.867,53185.76,35.15,0.03,0.018,2.19,64.47,4.69,0.02,1.22
20260130,133900,25.912685723333333,-80.13776754166666,-1.6,-1.8,7.0,0.0,31.8,-0.04,0.03,-0.98,0.71,Thruster,0.0,0.0,13026.0,133857.0,20.863,53166.63,35.14,0.03,0.018,2.21,64.43,4.69,0.02,1.22
20260130,133901,25.912688451666668,-80.13776130666666,-1.2,-0.9,7.0,0.0,31.8,-0.07,0.03,-1.0,3.58,Thruster,-0.3,60.0,13026.0,133858.0,20.859,53132.78,35.11,0.03,0.017,2.18,64.37,4.68,0.03,1.22
20260130,133902,25.9126902,-80.13775514666666,-2.1,-1.6,7.0,0.0,31.8,-0.02,0.14,-1.09,15.17,Thruster,-6.5,58.3,13026.0,133859.0,20.856,53084.29,35.08,0.02,0.017,2.18,64.28,4.68,0.02,1.22
20260130,133903,25.912689941666667,-80.13774971166667,-1.4,-1.2,7.0,0.0,31.8,-0.06,0.01,-1.01,10.59,Thruster,0.0,0.0,13026.0,133900.0,20.85,53026.62,35.04,0.02,0.016,2.13,64.16,4.67,0.03,1.22
20260130,133904,25.912689,-80.13774529,-1.1,-0.1,7.0,0.0,31.8,-0.03,0.0,-1.01,5.26,Thruster,0.0,0.0,13026.0,133901.0,20.843,52977.98,35.0,0.02,0.014,2.12,63.96,4.66,0.01,1.22
20260130,133905,25.912688043333333,-80.13774126166666,-1.6,-0.5,7.0,0.0,31.8,-0.03,0.0,-1.0,2.66,Thruster,0.0,0.0,13026.0,133902.0,20.836,52918.85,34.96,0.02,0.014,2.06,63.72,4.64,0.03,1.22
20260130,133906,25.912687083333335,-80.137737515,-1.4,-3.4,7.0,0.0,31.8,-0.03,0.05,-0.95,0.56,Thruster,0.0,0.0,13026.0,133903.0,20.827,52867.57,34.92,0.02,0.014,2.05,59.99,4.37,0.04,1.22
20260130,133907,25.912686005,-80.13773407166667,-1.1,-4.7,7.0,0.0,31.8,-0.02,0.09,-0.92,-0.17,Thruster,0.0,0.0,13026.0,133904.0,20.818,52823.9,34.89,0.02,0.013,2.06,59.43,4.33,0.03,1.22
20260130,133908,25.91268476833333,-80.13773079833334,-1.2,-3.9,7.0,0.0,31.9,0.02,0.07,-0.92,0.53,Thruster,39.0,0.0,13026.0,133905.0,20.804,52800.97,34.87,0.02,0.013,2.06,58.73,4.28,0.0,1.22
20260130,133909,25.912683055,-80.13772649833334,-0.6,-2.9,7.0,0.0,31.9,0.08,0.14,-0.94,5.33,Thruster,52.8,6.5,13026.0,133906.0,20.793,52772.53,34.85,0.02,0.013,2.02,58.52,4.27,-0.03,1.22
20260130,133910,25.912679581666666,-80.137717375,0.1,-1.8,7.0,0.0,31.9,0.07,0.05,-0.99,10.93,Thruster,65.7,15.4,13026.0,133907.0,20.782,52734.74,34.82,0.02,0.014,1.98,58.13,4.24,-0.03,1.22
20260130,133911,25.91267257166667,-80.13770117166666,-0.8,-1.5,7.0,0.0,31.9,-0.04,0.03,-0.88,6.69,Thruster,32.7,32.7,13026.0,133908.0,20.772,52721.18,34.81,0.02,0.014,1.95,57.83,4.22,-0.01,1.22
20260130,133912,25.912665371666666,-80.13768776,-1.9,-0.3,7.0,0.0,31.9,-0.02,0.01,-1.06,5.09,Thruster,11.7,42.2,13026.0,133909.0,20.763,52720.89,34.81,0.02,0.013,1.94,57.62,4.21,-0.02,1.22
20260130,133913,25.91265685,-80.13767439333333,0.0,-1.2,7.0,0.0,31.9,-0.07,0.07,-1.17,10.46,Thruster,26.6,72.6,13026.0,133910.0,20.756,52702.08,34.8,0.02,0.013,1.95,57.51,4.2,-0.02,1.22
20260130,133914,25.912643836666668,-80.13766121,2.3,-1.0,7.0,0.0,31.9,0.05,-0.06,-0.99,12.29,Thruster,34.8,56.1,13026.0,133911.0,20.747,52678.91,34.78,0.02,0.013,1.97,57.39,4.19,-0.03,1.22
20260130,133915,25.912628548333334,-80.13764990333334,1.2,-1.2,7.0,0.0,31.9,-0.01,0.1,-1.01,2.26,Thruster,28.8,28.8,13026.0,133912.0,20.738,52671.21,34.77,0.02,0.013,1.93,57.23,4.18,-0.02,1.22
20260130,133916,25.912615243333335,-80.137640765,-0.8,-1.2,7.0,0.0,31.9,-0.04,0.01,-1.03,2.65,Thruster,53.3,2.1,13026.0,133913.0,20.728,52675.83,34.78,0.02,0.013,1.92,57.0,4.17,-0.02,1.22
20260130,133917,25.912601733333332,-80.13763240333333,-0.4,-1.2,7.0,0.0,31.9,0.13,0.01,-1.1,2.11,Thruster,70.0,0.0,13026.0,133914.0,20.72,52675.18,34.78,0.02,0.013,1.89,56.79,4.15,-0.02,1.22
20260130,133918,25.912585353333334,-80.137622205,0.2,-0.9,7.0,0.0,31.9,-0.05,-0.02,-1.01,-1.07,Thruster,10.6,0.0,13026.0,133915.0,20.712,52676.99,34.78,0.02,0.013,1.87,56.54,4.13,-0.01,1.22
20260130,133919,25.912572031666667,-80.13761333833334,-1.8,-0.7,7.0,0.0,31.9,-0.05,-0.0,-0.97,-1.08,Thruster,4.5,4.5,13026.0,133916.0,20.705,52690.2,34.79,0.02,0.013,1.85,56.32,4.12,0.0,1.22
20260130,133920,25.912561681666666,-80.13760617,-3.1,-1.0,7.0,0.0,31.9,-0.08,0.07,-1.05,0.82,Thruster,1.5,69.8,13026.0,133917.0,20.699,52694.5,34.79,0.02,0.012,1.88,56.07,4.1,-0.0,1.22
20260130,133921,25.91255019,-80.13759944333333,-0.2,-2.1,7.0,0.0,31.9,-0.01,0.19,-1.12,12.11,Thruster,27.0,73.0,13026.0,133918.0,20.694,52681.1,34.78,0.02,0.011,1.86,55.88,4.09,-0.02,1.22
20260130,133922,25.912536896666666,-80.137595925,0.7,-1.8,7.0,0.0,31.9,0.02,0.15,-1.15,17.05,Thruster,27.0,73.0,13026.0,133919.0,20.69,52661.08,34.77,0.02,0.01,1.84,55.57,4.06,-0.02,1.22
20260130,133923,25.91252043,-80.13759607833333,1.1,-2.2,7.0,0.0,31.9,0.04,0.09,-1.03,13.69,Thruster,33.1,59.2,13026.0,133920.0,20.687,52661.08,34.77,0.01,0.01,1.78,55.24,4.04,-0.03,1.22
20260130,133924,25.91250322,-80.13759991666667,0.3,-1.9,7.0,0.0,31.9,-0.03,0.08,-0.97,2.84,Thruster,29.8,29.8,13026.0,133921.0,20.685,52644.88,34.75,0.01,0.01,1.73,54.91,4.02,-0.04,1.22
20260130,133925,25.912488055,-80.137604025,-1.3,-1.1,7.0,0.0,31.9,-0.06,-0.0,-1.05,2.58,Thruster,4.9,-4.9,13026.0,133922.0,20.683,52629.89,34.74,0.01,0.01,1.73,54.64,4.0,-0.06,1.22
20260130,133926,25.912475471666667,-80.13760755166666,-2.2,-0.6,7.0,0.0,31.9,-0.06,-0.01,-0.95,-0.39,Thruster,-0.6,-35.7,13026.0,133923.0,20.681,52643.62,34.75,0.01,0.009,1.78,54.34,3.98,-0.08,1.22
20260130,133927,25.912464018333335,-80.13761045,-1.3,-0.7,7.0,0.0,31.9,-0.08,0.01,-1.1,-6.98,Thruster,10.4,-69.2,13026.0,133924.0,20.682,52671.31,34.77,0.01,0.009,1.83,54.11,3.96,-0.08,1.22
20260130,133928,25.91245298,-80.13761094333333,0.4,0.7,7.0,0.0,31.9,0.02,0.08,-0.95,-16.37,Thruster,39.9,-39.9,13026.0,133925.0,20.684,52681.23,34.78,0.01,0.009,1.81,53.9,3.94,-0.1,1.22
20260130,133929,25.91244024,-80.13760784666667,-1.3,-0.2,7.0,0.0,31.9,0.0,-0.04,-0.94,-6.31,Thruster,23.7,-14.6,13026.0,133926.0,20.688,52699.98,34.79,0.01,0.008,1.83,53.76,3.93,-0.11,1.22
20260130,133930,25.91242811,-80.13760379166666,-2.2,-0.7,7.0,0.0,31.9,0.01,0.0,-0.94,-3.34,Thruster,28.3,-28.3,13026.0,133927.0,20.692,52738.48,34.82,0.01,0.008,1.86,53.67,3.92,-0.13,1.22
20260130,133931,25.91241505,-80.137598255,-0.3,-0.2,7.0,0.0,31.9,-0.07,-0.02,-1.1,-11.17,Thruster,21.5,-69.4,13026.0,133928.0,20.7,52787.2,34.86,0.01,0.009,1.86,53.65,3.92,-0.14,1.22
20260130,133932,25.912402638333333,-80.13758878,1.3,1.2,7.0,0.0,31.9,-0.01,-0.07,-1.14,-19.62,Thruster,27.0,-73.0,13026.0,133929.0,20.709,52838.41,34.9,0.01,0.01,1.93,53.72,3.93,-0.13,1.22
20260130,133933,25.9123918,-80.137573345,1.9,0.2,7.0,0.0,31.9,-0.02,-0.21,-1.0,-14.09,Thruster,27.0,-73.0,13026.0,133930.0,20.721,52881.69,34.93,0.02,0.011,1.95,53.87,3.94,-0.12,1.22
20260130,133934,25.912383711666667,-80.13755493,2.4,0.0,7.0,0.0,31.9,0.14,0.05,-1.05,-9.12,Thruster,27.0,-73.0,13026.0,133931.0,20.732,52925.29,34.96,0.02,0.012,2.01,54.13,3.95,-0.13,1.22
20260130,133935,25.912378411666666,-80.13753530833333,0.7,0.8,7.0,0.0,31.9,-0.01,0.08,-1.13,-5.33,Thruster,39.6,-39.6,13026.0,133932.0,20.743,52966.27,34.99,0.02,0.013,2.03,57.45,4.19,-0.13,1.22
20260130,133936,25.912374853333333,-80.13751745166667,-0.4,-0.0,7.0,0.0,32.0,-0.03,-0.09,-0.98,-2.32,Thruster,18.5,-18.5,13026.0,133933.0,20.752,53005.13,35.02,0.02,0.014,2.06,57.55,4.2,-0.13,1.22
20260130,133937,25.9123722,-80.13750273,-3.4,0.3,7.0,0.0,31.9,-0.07,-0.01,-1.03,-1.17,Thruster,-5.6,-5.6,13026.0,133934.0,20.76,53034.71,35.04,0.02,0.014,2.1,57.61,4.2,-0.12,1.22
20260130,133938,25.912369938333335,-80.13748982166666,-3.1,-0.1,7.0,0.0,31.9,-0.12,0.04,-1.03,-2.58,Thruster,-60.3,0.0,13026.0,133935.0,20.767,53056.3,35.06,0.02,0.015,2.13,57.53,4.2,-0.13,1.22
20260130,133939,25.912368695,-80.13748117333333,-2.6,0.7,7.0,0.0,32.0,-0.08,-0.02,-0.9,-3.09,Thruster,-70.7,14.1,13026.0,133936.0,20.774,53054.1,35.06,0.02,0.015,2.19,57.5,4.19,-0.13,1.22
20260130,133940,25.912367998333334,-80.13748003333333,-0.4,-0.6,7.0,0.0,32.0,-0.03,0.02,-0.95,2.61,Thruster,-23.8,23.8,13026.0,133937.0,20.778,53053.51,35.06,0.02,0.015,2.19,57.45,4.19,-0.14,1.22
20260130,133941,25.91236692,-80.137482755,-0.1,0.1,7.0,0.0,32.0,0.0,0.0,-0.87,3.85,Thruster,-6.2,-6.2,13026.0,133938.0,20.782,53089.14,35.08,0.02,0.015,2.19,57.41,4.19,-0.12,1.22
20260130,133942,25.912366198333334,-80.13748518166666,-1.8,0.8,7.0,0.0,32.0,-0.03,0.01,-0.99,-0.2,Thruster,-0.1,-53.6,13026.0,133939.0,20.788,53131.92,35.11,0.02,0.015,2.24,57.43,4.19,-0.1,1.22
20260130,133943,25.912366095,-80.13748810333334,-2.2,0.8,7.0,0.0,32.0,-0.06,0.04,-0.83,-9.8,Thruster,19.9,-69.2,13026.0,133940.0,20.795,53161.5,35.14,0.02,0.015,2.26,57.53,4.19,-0.06,1.22
20260130,133944,25.912366595,-80.13748937333334,-0.6,1.3,7.0,0.0,32.0,0.05,0.05,-1.13,-22.24,Thruster,27.0,-73.0,13026.0,133941.0,20.802,53175.14,35.15,0.02,0.015,2.33,57.72,4.2,-0.04,1.22
20260130,133945,25.912370193333334,-80.137484585,-0.1,-1.3,7.0,0.0,32.0,-0.04,0.09,-0.78,-26.19,Thruster,27.0,-73.0,13026.0,133942.0,20.806,53140.78,35.12,0.02,0.016,2.33,57.91,4.22,-0.05,1.22
20260130,133946,25.91237934,-80.13747693833334,0.9,-1.6,7.0,0.0,32.1,0.02,0.0,-0.96,-17.87,Thruster,27.0,-73.0,13026.0,133943.0,20.804,53094.2,35.09,0.02,0.017,2.33,58.1,4.23,-0.05,1.22
20260130,133947,25.9123934,-80.13747102,2.6,-0.3,7.0,0.0,32.1,0.12,-0.06,-0.86,-12.69,Thruster,27.0,-73.0,13026.0,133944.0,20.798,53072.02,35.07,0.03,0.018,2.35,58.19,4.24,-0.05,1.22
20260130,133948,25.912410525,-80.13746881833333,2.7,-0.6,7.0,0.0,32.1,0.13,0.01,-0.98,-15.73,Thruster,27.0,-73.0,13026.0,133945.0,20.792,53063.13,35.06,0.03,0.019,2.31,58.23,4.24,-0.06,1.22
20260130,133949,25.912427993333335,-80.13747139833333,2.6,-0.0,7.0,0.0,32.1,-0.08,-0.18,-1.13,-9.6,Thruster,27.0,-73.0,13026.0,133946.0,20.788,53031.77,35.04,0.03,0.02,2.31,58.22,4.24,-0.04,1.22
20260130,133950,25.912444931666666,-80.13747748166666,2.6,0.1,7.0,0.0,32.1,0.11,0.11,-1.15,-11.68,Thruster,27.0,-73.0,13026.0,133947.0,20.783,53002.68,35.02,0.03,0.021,2.28,58.15,4.24,-0.04,1.22
20260130,133951,25.912461631666666,-80.13748834,3.1,0.3,7.0,0.0,32.1,-0.03,-0.14,-1.17,-12.58,Thruster,27.0,-73.0,13026.0,133948.0,20.777,52976.06,35.0,0.03,0.022,2.22,58.06,4.23,-0.03,1.22
20260130,133952,25.912474070000002,-80.13750156166667,2.9,0.3,7.0,0.0,32.1,0.08,-0.25,-0.83,-13.57,Thruster,27.0,-73.0,13026.0,133949.0,20.771,52957.09,34.99,0.03,0.023,2.18,57.95,4.23,-0.02,1.22
20260130,133953,25.912483013333333,-80.13751752833333,2.9,0.2,7.0,0.0,32.1,0.1,0.04,-1.14,-14.51,Thruster,27.0,-73.0,13026.0,133950.0,20.766,52939.79,34.97,0.03,0.023,2.1,57.82,4.22,-0.01,1.22
20260130,133954,25.912488423333333,-80.13753564,1.8,0.5,7.0,0.0,32.1,-0.02,0.0,-0.98,-7.4,Thruster,44.1,-44.1,13026.0,133951.0,20.761,52921.61,34.96,0.04,0.024,2.09,57.64,4.21,0.01,1.22
20260130,133955,25.912491601666666,-80.13755311333334,0.6,-0.3,7.0,0.0,32.1,-0.1,-0.01,-1.06,-2.88,Thruster,40.6,-12.6,13026.0,133952.0,20.756,52888.22,34.93,0.04,0.024,2.01,57.46,4.19,0.02,1.22
20260130,133956,25.912493765,-80.13756768166667,-0.9,-0.9,7.0,0.0,32.1,-0.01,0.09,-0.99,-0.57,Thruster,44.3,2.2,13026.0,133953.0,20.75,52869.11,34.92,0.03,0.024,2.0,57.23,4.18,0.02,1.22
20260130,133957,25.912496666666666,-80.137584595,1.8,-0.3,7.0,0.0,32.1,-0.04,-0.03,-0.99,-3.04,Thruster,70.0,0.0,13026.0,133954.0,20.745,52858.98,34.91,0.04,0.024,2.07,57.03,4.16,0.04,1.22
20260130,133958,25.912499496666666,-80.13760570666666,1.4,-0.3,7.0,0.0,32.1,-0.13,0.02,-0.91,-1.95,Thruster,60.6,0.0,13026.0,133955.0,20.742,52857.28,34.91,0.04,0.025,2.0,56.8,4.15,0.02,1.22
20260130,133959,25.912501266666666,-80.13762364666667,0.1,-0.9,7.0,0.0,32.1,-0.06,0.02,-1.03,-0.25,Thruster,3.8,3.8,13026.0,133956.0,20.74,52885.77,34.93,0.04,0.026,2.01,56.6,4.13,0.02,1.22
20260130,134000,25.912502598333333,-80.137637225,-1.8,-1.5,7.0,0.0,32.1,-0.0,0.06,-1.06,4.0,Thruster,18.1,54.1,13026.0,133957.0,20.742,52907.49,34.95,0.04,0.026,2.01,56.42,4.12,0.01,1.22
20260130,134001,25.912506298333334,-80.13765457833334,0.9,-1.5,7.0,0.0,32.1,0.03,0.08,-0.98,12.64,Thruster,27.0,73.0,13026.0,133958.0,20.744,52907.8,34.95,0.04,0.026,2.04,56.3,4.11,0.01,1.22
20260130,134002,25.91251344,-80.13767212666667,0.8,-1.1,7.0,0.0,32.1,-0.03,0.09,-1.01,1.56,Thruster,40.4,40.4,13026.0,133959.0,20.746,52923.95,34.96,0.04,0.026,2.06,56.22,4.1,-0.02,1.22
20260130,134003,25.912520618333332,-80.13768769666666,1.3,-1.3,7.0,0.0,32.1,0.05,0.01,-0.9,4.29,Thruster,63.1,23.9,13026.0,134000.0,20.749,52953.28,34.98,0.04,0.026,2.07,56.21,4.1,-0.05,1.22
20260130,134004,25.91252945,-80.137703265,1.8,-1.2,7.0,0.0,32.1,-0.02,0.02,-0.96,2.83,Thruster,71.8,1.8,13026.0,134001.0,20.755,52988.48,35.01,0.04,0.027,2.07,56.26,4.11,-0.05,1.22
20260130,134005,25.912539453333334,-80.13772027833333,1.6,-0.6,7.0,0.0,32.1,-0.03,-0.03,-0.87,-1.27,Thruster,44.2,0.0,13026.0,134002.0,20.763,53022.48,35.03,0.04,0.028,2.02,56.38,4.11,-0.06,1.22
20260130,134006,25.912547553333333,-80.13773535833333,-0.3,-0.3,7.0,0.0,32.1,-0.05,-0.02,-1.0,-1.18,Thruster,26.3,26.3,13026.0,134003.0,20.769,53059.46,35.06,0.04,0.029,2.02,56.58,4.13,-0.07,1.22
20260130,134007,25.912554066666665,-80.13774766833333,-1.5,-1.2,7.0,0.0,32.1,0.0,0.07,-1.05,5.08,Thruster,19.0,69.4,13026.0,134004.0,20.778,53093.58,35.09,0.04,0.028,2.01,56.82,4.14,-0.06,1.22
20260130,134008,25.912563788333333,-80.13776103166667,1.6,-1.3,7.0,0.0,32.1,0.05,0.07,-0.82,11.99,Thruster,19.9,73.7,13026.0,134005.0,20.785,53123.24,35.11,0.04,0.029,1.96,57.16,4.17,-0.07,1.22
20260130,134009,25.912576983333334,-80.13777280166667,1.0,-1.4,7.0,0.0,32.1,0.0,-0.02,-1.09,9.94,Thruster,-0.0,61.8,13026.0,134006.0,20.794,53140.01,35.12,0.04,0.029,1.99,57.49,4.19,-0.06,1.22
20260130,134010,25.91258891,-80.13777964833334,-2.4,-2.8,7.0,0.0,32.0,-0.1,0.16,-1.16,13.03,Thruster,-5.6,70.1,13026.0,134007.0,20.8,53147.39,35.13,0.04,0.028,2.0,57.87,4.22,-0.07,1.22
20260130,134011,25.912600191666666,-80.137781855,-2.5,-2.0,7.0,0.0,32.0,-0.05,0.08,-0.97,17.74,Thruster,-1.6,27.6,13026.0,134008.0,20.806,53165.77,35.14,0.04,0.027,2.02,61.38,4.47,-0.1,1.22
20260130,134012,25.912608436666666,-80.13778074833333,0.1,-1.0,7.0,0.0,32.0,0.03,0.08,-1.0,7.15,Thruster,36.4,36.4,13026.0,134009.0,20.812,53196.09,35.16,0.04,0.025,2.05,61.82,4.5,-0.13,1.22
20260130,134013,25.912618566666666,-80.137777925,-1.8,-1.9,7.0,0.0,32.0,-0.02,0.01,-1.01,8.73,Thruster,41.3,6.3,13026.0,134010.0,20.819,53211.22,35.17,0.04,0.024,2.09,62.24,4.53,-0.12,1.22
20260130,134014,25.912630348333334,-80.137773,-1.0,-1.5,7.0,0.0,32.1,0.04,-0.02,-0.99,3.57,Thruster,39.3,0.0,13026.0,134011.0,20.826,53232.55,35.19,0.03,0.024,2.1,62.44,4.55,-0.11,1.22
20260130,134015,25.912641775,-80.13776758333333,-1.9,-0.5,7.0,0.0,32.0,-0.06,0.01,-1.01,-2.13,Thruster,0.0,0.0,13026.0,134012.0,20.835,53244.32,35.2,0.03,0.024,2.1,62.62,4.56,-0.09,1.22
20260130,134016,25.912651043333334,-80.137763495,-3.1,-1.4,7.0,0.0,32.1,-0.06,0.01,-0.99,0.59,Thruster,11.5,35.1,13026.0,134013.0,20.842,53261.27,35.21,0.03,0.024,2.17,62.77,4.57,-0.08,1.22
20260130,134017,25.91265908,-80.13775964,-0.6,-0.7,7.0,0.0,32.0,0.02,0.07,-0.98,7.82,Thruster,2.6,70.0,13026.0,134014.0,20.849,53271.7,35.22,0.03,0.024,2.18,62.85,4.57,-0.06,1.22
20260130,134019,25.912665908333334,-80.13775419833334,-2.3,-2.1,7.0,0.0,32.1,-0.09,0.11,-0.98,21.38,Thruster,-5.2,75.2,13026.0,134015.0,20.853,53258.92,35.21,0.03,0.024,2.14,62.9,4.58,-0.05,1.22
20260130,134019,25.91266956833333,-80.137746315,-0.1,-1.4,7.0,0.0,32.0,0.01,-0.05,-1.04,21.0,Thruster,-5.2,75.2,13026.0,134016.0,20.856,53225.54,35.18,0.03,0.024,2.15,62.87,4.57,-0.05,1.22
20260130,134020,25.912670371666668,-80.13773759166666,-2.2,-3.5,7.0,0.0,32.0,-0.07,0.31,-1.28,24.11,Thruster,-5.2,75.2,13026.0,134017.0,20.855,53175.54,35.15,0.03,0.023,2.14,62.75,4.56,-0.03,1.22
20260130,134021,25.91266734,-80.137730225,-0.5,-4.5,7.0,0.0,32.0,-0.04,0.08,-0.96,26.25,Thruster,-5.2,75.2,13026.0,134018.0,20.852,53129.41,35.11,0.03,0.023,2.16,62.57,4.55,-0.03,1.22
20260130,134022,25.912662671666666,-80.137727,-0.1,-0.2,7.0,0.0,32.0,-0.07,0.04,-1.07,25.5,Thruster,-4.3,62.3,13026.0,134019.0,20.847,53073.63,35.07,0.03,0.023,2.13,62.3,4.53,-0.03,1.22
20260130,134023,25.912658451666665,-80.13772647666667,-0.4,0.5,7.0,0.0,32.0,-0.01,0.01,-1.01,25.0,Thruster,-3.5,50.5,13026.0,134020.0,20.838,53031.15,35.04,0.03,0.023,2.08,62.05,4.52,-0.03,1.22
20260130,134025,25.912655061666666,-80.13772723,-0.1,0.6,7.0,0.0,32.0,-0.05,0.05,-0.98,17.19,Thruster,-10.0,12.8,13026.0,134021.0,20.829,53000.13,35.02,0.03,0.022,2.04,61.76,4.5,0.02,1.22
20260130,134026,25.912652436666665,-80.13772834166667,-1.7,-1.1,7.0,0.0,32.0,-0.05,0.0,-1.03,10.56,Thruster,5.7,5.7,13026.0,134022.0,20.821,52971.54,35.0,0.03,0.02,2.06,61.53,4.48,0.14,1.22
20260130,134027,25.912649965,-80.13772967333334,-2.0,-2.0,7.0,0.0,32.0,0.01,0.14,-1.08,9.13,Thruster,50.0,18.2,13026.0,134023.0,20.812,52944.79,34.98,0.03,0.019,2.02,61.3,4.47,0.32,1.22
20260130,134028,25.91264467,-80.13773339666666,0.7,-1.5,7.0,0.0,32.0,0.06,-0.01,-1.09,4.57,Thruster,67.7,28.0,13026.0,134024.0,20.804,52916.3,34.95,0.02,0.017,1.96,61.11,4.45,0.53,1.22
20260130,134029,25.912634466666667,-80.13774222166667,-0.3,-0.8,7.0,0.0,32.0,-0.02,0.1,-1.02,6.83,Thruster,34.3,34.3,13026.0,134025.0,20.795,52905.49,34.95,0.02,0.016,1.96,60.81,4.43,0.65,1.22
20260130,134030,25.912624073333333,-80.13775286833334,-1.4,0.3,7.0,0.0,32.0,-0.07,-0.04,-1.03,5.08,Thruster,1.0,1.0,13026.0,134026.0,20.789,52911.86,34.95,0.02,0.015,2.0,60.56,4.42,0.69,1.22
20260130,134031,25.912615556666665,-80.13776230166667,-2.7,1.3,7.0,0.0,32.0,-0.05,-0.04,-1.04,0.63,Thruster,-0.8,-10.8,13026.0,134027.0,20.785,52917.54,34.96,0.02,0.014,1.99,60.3,4.4,0.71,1.22
20260130,134032,25.912615556666665,-80.13776230166667,-2.7,1.3,7.0,0.0,32.0,-0.05,-0.04,-1.04,0.63,Thruster,-0.8,-10.8,13026.0,134028.0,20.784,52937.82,34.97,0.02,0.013,2.01,60.12,4.38,0.73,1.22
20260130,134033,25.912599605,-80.137776765,-1.7,-0.2,7.0,0.0,32.0,-0.14,-0.01,-1.01,-17.99,Thruster,-5.2,-75.2,13026.0,134029.0,20.785,52987.19,35.01,0.02,0.012,2.01,59.99,4.38,0.74,1.22
20260130,134034,25.91259159166667,-80.13777839,-1.9,-0.0,7.0,0.0,32.1,0.0,0.06,-1.03,-26.99,Thruster,-5.2,-75.2,13026.0,134030.0,20.79,53065.22,35.07,0.02,0.011,2.04,59.95,4.37,0.82,1.22
20260130,134035,25.912585988333333,-80.13777590666666,-1.6,0.9,7.0,0.0,32.1,-0.07,-0.04,-1.11,-27.59,Thruster,-5.2,-75.2,13026.0,134031.0,20.8,53141.95,35.12,0.02,0.011,2.12,60.01,4.37,0.88,1.22
20260130,134035,25.912585988333333,-80.13777590666666,-1.6,0.9,7.0,0.0,32.1,-0.07,-0.04,-1.11,-27.59,Thruster,-5.2,-75.2,13026.0,134032.0,20.812,53207.71,35.17,0.02,0.01,2.16,63.57,4.63,0.91,1.22
20260130,134036,25.912583718333334,-80.137771665,-1.0,0.4,7.0,0.0,32.1,-0.0,-0.25,-0.89,-29.49,Thruster,-5.2,-75.2,13026.0,134033.0,20.827,53256.82,35.21,0.01,0.009,2.2,64.14,4.67,0.93,1.22
20260130,134037,25.912584218333333,-80.13776788166666,-0.9,-0.2,7.0,0.0,32.1,-0.06,-0.04,-0.84,-28.95,Thruster,-5.5,-71.9,13026.0,134034.0,20.839,53301.43,35.24,0.01,0.008,2.23,64.6,4.7,0.95,1.22
20260130,134038,25.912585873333335,-80.13776572,-0.9,-0.4,7.0,0.0,32.1,0.01,0.06,-0.99,-22.76,Thruster,-3.4,-43.5,13026.0,134035.0,20.853,53334.14,35.26,0.01,0.008,2.3,64.8,4.71,0.97,1.22
20260130,134039,25.912587795,-80.137764575,-1.7,0.6,7.0,0.0,32.1,-0.02,-0.04,-1.04,-23.25,Thruster,-4.8,-68.8,13026.0,134036.0,20.864,53368.33,35.29,0.01,0.008,2.34,64.98,4.73,0.87,1.22
20260130,134040,25.91259022,-80.13776445333333,-1.7,-0.2,7.0,0.0,32.1,-0.0,-0.1,-0.98,-22.67,Thruster,1.5,-55.5,13026.0,134037.0,20.876,53399.32,35.31,0.01,0.007,2.36,65.14,4.73,0.78,1.22
20260130,134041,25.912595223333334,-80.137764315,-0.6,0.5,7.0,0.0,32.1,0.03,0.02,-1.02,-18.99,Thruster,26.3,-51.6,13026.0,134038.0,20.886,53419.77,35.33,0.01,0.006,2.41,65.28,4.74,0.62,1.22
20260130,134042,25.912604891666668,-80.13776541166666,-1.2,0.1,7.0,0.0,32.1,0.0,-0.03,-1.09,-9.59,Thruster,22.1,-30.4,13026.0,134039.0,20.896,53420.83,35.33,0.01,0.006,2.42,65.38,4.75,0.46,1.22
20260130,134043,25.912615908333333,-80.13776873666667,0.0,0.1,7.0,0.0,32.1,0.09,0.06,-1.07,-13.53,Thruster,24.1,-64.3,13026.0,134040.0,20.902,53430.46,35.34,0.01,0.005,2.39,65.48,4.76,0.39,1.22
20260130,134044,25.91262863,-80.13777583333334,-0.2,0.4,7.0,0.0,32.1,-0.09,-0.08,-0.94,-15.96,Thruster,0.9,-69.4,13026.0,134041.0,20.908,53430.62,35.34,0.01,0.005,2.39,65.56,4.76,0.38,1.22
20260130,134045,25.912638131666668,-80.13778505833334,-1.8,0.9,7.0,0.0,32.1,0.01,-0.03,-1.06,-15.32,Thruster,-5.1,-60.8,13026.0,134042.0,20.911,53420.57,35.33,0.01,0.005,2.33,65.63,4.77,0.36,1.22
20260130,134046,25.912642995,-80.13779391333334,-2.2,-0.2,7.0,0.0,32.2,-0.08,0.0,-1.02,-10.25,Thruster,0.0,0.0,13026.0,134043.0,20.912,53400.72,35.31,0.01,0.004,2.31,65.69,4.77,0.38,1.22
20260130,134047,25.912645863333335,-80.1378013,-1.9,-0.4,7.0,0.0,32.2,-0.04,0.01,-1.0,-1.6,Thruster,-0.8,21.9,13026.0,134044.0,20.911,53368.25,35.29,0.01,0.004,2.26,65.73,4.77,0.37,1.22
20260130,134048,25.912648391666668,-80.13780756166666,-1.8,-0.5,7.0,0.0,32.2,-0.05,0.02,-1.02,6.36,Thruster,5.4,69.5,13026.0,134045.0,20.909,53341.04,35.27,0.0,0.003,2.25,65.76,4.78,0.3,1.22
20260130,134049,25.912652081666668,-80.13781255,-1.3,-1.4,7.0,0.0,32.1,-0.01,0.08,-1.02,18.64,Thruster,22.0,73.7,13026.0,134046.0,20.906,53320.39,35.25,0.0,0.003,2.25,65.78,4.78,0.26,1.22
20260130,134050,25.91265932,-80.13781692666667,-1.2,-1.7,7.0,0.0,32.1,0.03,0.12,-0.99,18.59,Thruster,7.5,71.6,13026.0,134047.0,20.903,53295.85,35.24,0.0,0.003,2.2,65.79,4.78,0.22,1.22
20260130,134051,25.912667918333334,-80.13781902,-1.9,-1.0,7.0,0.0,32.1,-0.09,0.11,-1.16,14.04,Thruster,-3.0,59.0,13026.0,134048.0,20.9,53275.4,35.22,0.0,0.003,2.15,65.79,4.78,0.17,1.22
20260130,134052,25.912675891666666,-80.13781814,-1.8,-2.2,7.0,0.0,32.1,-0.03,0.0,-0.78,23.33,Thruster,-5.2,75.2,13026.0,134049.0,20.898,53255.95,35.21,0.0,0.002,2.11,65.82,4.78,0.13,1.22
20260130,134053,25.912680968333333,-80.137814745,-2.2,-2.2,7.0,0.0,32.1,-0.03,0.05,-1.04,18.28,Thruster,-9.4,41.0,13026.0,134050.0,20.896,53237.4,35.19,0.0,0.002,2.04,65.82,4.78,0.17,1.22
20260130,134054,25.91268417,-80.13781096333334,-1.7,-1.4,7.0,0.0,32.1,-0.03,0.01,-0.98,9.1,Thruster,0.0,0.0,13026.0,134051.0,20.895,53214.95,35.18,0.0,0.001,2.03,65.78,4.78,0.16,1.22
20260130,134055,25.91268663,-80.13780764,-1.8,-1.3,7.0,0.0,32.1,-0.03,0.02,-0.98,3.62,Thruster,0.0,0.0,13026.0,134052.0,20.895,53201.61,35.17,0.0,0.001,1.98,65.71,4.78,0.09,1.22
20260130,134056,25.91268889,0.0,-1.9,-1.4,7.0,0.0,32.1,-0.02,0.0,-0.99,1.24,Thruster,0.0,0.0,13026.0,134053.0,20.895,53175.43,35.15,0.0,0.001,1.93,65.62,4.77,0.04,1.22
20260130,134057,25.912691145,-80.13780123666666,-2.1,-1.6,7.0,0.0,32.1,-0.03,0.01,-1.02,0.69,Thruster,12.6,11.0,13026.0,134054.0,20.893,53152.5,35.13,0.0,0.001,1.87,65.5,4.76,-0.02,1.22
20260130,134058,25.912693533333332,-80.13779766833333,-2.0,-1.7,7.0,0.0,32.1,-0.03,0.03,-0.99,-1.18,Thruster,0.0,0.0,13026.0,134055.0,20.891,53132.21,35.11,0.0,0.001,1.88,65.37,4.75,-0.05,1.22
20260130,134059,25.912695808333332,-80.13779442833334,-1.6,-2.5,7.0,0.0,32.1,-0.02,0.05,-0.92,-0.85,Thruster,0.0,0.0,13026.0,134056.0,20.889,53094.13,35.09,0.0,0.001,1.84,65.2,4.74,-0.08,1.22
20260130,134100,25.912697811666668,-80.137791355,-2.1,-3.8,7.0,0.0,32.1,-0.03,0.07,-0.94,1.09,Thruster,0.0,0.0,13026.0,134057.0,20.885,53048.96,35.05,0.0,0.001,1.79,65.03,4.73,-0.11,1.22
20260130,134101,25.912699541666665,-80.13778822333333,-2.0,-2.5,7.0,0.0,32.1,-0.03,0.06,-0.97,1.95,Thruster,0.0,0.0,13026.0,134058.0,20.878,53012.07,35.03,0.0,0.001,1.81,64.79,4.71,-0.14,1.22
20260130,134102,25.912701153333334,-80.13778489833334,-2.2,-2.0,7.0,0.0,32.1,-0.03,0.04,-0.99,2.07,Thruster,0.0,0.0,13026.0,134059.0,20.871,52992.02,35.01,0.0,0.001,1.86,64.54,4.7,-0.17,1.22
20260130,134103,25.912702346666666,-80.13778196833333,-2.4,-0.6,7.0,0.0,32.1,-0.04,0.01,-1.02,1.46,Thruster,0.0,0.0,13026.0,134100.0,20.863,52982.27,35.0,0.0,0.001,1.91,64.21,4.67,-0.19,1.22
20260130,134104,25.912703345,-80.13777908666667,-2.4,-0.3,7.0,0.0,32.1,-0.04,-0.01,-1.01,0.85,Thruster,0.0,0.0,13026.0,134101.0,20.856,52976.88,35.0,0.0,0.001,1.94,63.91,4.65,-0.2,1.22
20260130,134105,25.912704206666668,-80.13777631166667,-2.5,-0.6,7.0,0.0,32.1,-0.04,-0.01,-1.0,1.5,Thruster,0.0,0.0,13026.0,134102.0,20.847,52975.03,35.0,0.0,0.001,1.99,63.57,4.63,-0.21,1.22
20260130,134106,25.912704983333334,-80.137773695,-2.6,-1.4,7.0,0.0,32.1,-0.04,0.02,-0.99,1.06,Thruster,0.0,0.0,13026.0,134103.0,20.839,52973.25,35.0,0.0,0.001,1.99,63.22,4.6,-0.2,1.22
20260130,134107,25.912705576666667,-80.13777118,-2.5,-1.8,7.0,0.0,32.1,-0.04,0.03,-1.0,1.03,Thruster,0.0,0.0,13026.0,134104.0,20.831,52973.18,35.0,0.0,0.0,2.04,62.92,4.58,-0.23,1.22
20260130,134108,25.912706086666667,-80.137768615,-2.2,-1.3,7.0,0.0,32.2,-0.03,0.0,-1.0,1.03,Thruster,0.0,0.0,13026.0,134105.0,20.821,52976.14,35.0,-0.0,-0.0,2.07,62.63,4.56,-0.27,1.22
20260130,134109,25.912706566666667,-80.13776621333334,-2.2,-1.1,7.0,0.0,32.2,-0.03,0.01,-0.98,0.4,Thruster,0.0,0.0,13026.0,134106.0,20.812,52979.3,35.0,-0.0,-0.001,2.09,62.3,4.54,-0.27,1.22
20260130,134110,25.912706991666667,-80.13776384,-2.6,-1.6,7.0,0.0,32.2,-0.04,0.02,-1.0,0.23,Thruster,0.0,0.0,13026.0,134107.0,20.804,52985.51,35.01,-0.0,-0.001,2.12,62.01,4.52,-0.26,1.22
20260130,134111,25.912707365,-80.137761485,-2.5,-1.6,7.0,0.0,32.2,-0.04,0.03,-0.99,0.25,Thruster,0.0,0.0,13026.0,134108.0,20.797,52998.09,35.02,-0.0,-0.002,2.12,61.69,4.5,-0.24,1.22
20260130,134112,25.912707671666666,-80.137759135,-2.3,-2.4,7.0,0.0,32.2,-0.03,0.03,-0.96,0.94,Thruster,22.4,0.0,13026.0,134109.0,20.791,53015.24,35.03,-0.0,-0.003,2.12,61.42,4.48,-0.22,1.22
20260130,134113,25.912708151666667,-80.13775620166666,-1.6,-1.9,7.0,0.0,32.2,0.03,0.05,-1.0,0.17,Thruster,70.0,0.0,13026.0,134110.0,20.787,53042.64,35.05,-0.0,-0.003,2.09,61.14,4.46,-0.22,1.22
20260130,134114,25.912710336666667,-80.13774911666667,-1.1,-1.6,62.2,0.0,32.2,-0.06,-0.04,-1.01,1.03,Thruster,70.0,0.0,13026.0,134111.0,20.784,53051.48,35.05,-0.0,-0.003,2.03,60.92,4.44,-0.2,1.22
20260130,134115,25.912713671666666,-80.13773829833333,-2.6,-1.0,7.0,0.0,32.2,-0.06,0.0,-1.03,1.59,Thruster,0.0,0.0,13026.0,134112.0,20.781,53032.93,35.04,-0.0,-0.003,2.01,60.66,4.42,-0.17,1.22
20260130,134116,25.912716403333334,-80.13772839666666,-2.2,-0.1,7.0,0.0,32.2,-0.01,0.0,-1.05,3.86,Thruster,-0.4,65.9,13026.0,134113.0,20.776,53000.57,35.02,-0.0,-0.003,1.98,60.42,4.41,-0.14,1.22
